City_ID,City,Country,Max Temp,Current Discription,Lat,Lng,Hotel Name
0,Busselton,AU,62.64,overcast clouds,-33.65,115.3333,Observatory Guest House
1,Thompson,CA,33.96,overcast clouds,55.7435,-97.8558,Burntwood Hotel
2,Norman Wells,CA,14.77,overcast clouds,65.282,-126.8329,Heritage Hotel
3,Shetpe,KZ,51.93,scattered clouds,44.1667,52.1167,Rtsm Shetpe Analog
4,Bluff,NZ,58.1,clear sky,-46.6,168.3333,Bluff Homestead - Guesthouse & Campervan Park
5,Guanica,PR,78.06,broken clouds,17.9716,-66.908,Copamarina Beach Resort & Spa
6,Vaini,TO,84.36,few clouds,-21.2,-175.2,Keleti Beach Resort
7,Ushuaia,AR,47.86,broken clouds,-54.8,-68.3,Albatross Hotel
8,Port Alfred,ZA,62.19,overcast clouds,-33.5906,26.891,The Halyards Hotel
9,Banyo,CM,67.48,overcast clouds,6.75,11.8167,Motel JOMBA
10,Pilar,BR,75.13,broken clouds,-9.5972,-35.9567,Pousada e churrascaria Manguaba
11,Yellowknife,CA,27.41,overcast clouds,62.456,-114.3525,The Explorer Hotel
13,Acapulco,MX,80.42,scattered clouds,16.8634,-99.8901,HS Hotsson Smart Acapulco
14,Kapaa,US,82.38,few clouds,22.0752,-159.319,Sheraton Kauai Coconut Beach Resort
15,Rikitea,PF,79.09,clear sky,-23.1203,-134.9692,People ThankYou
16,Morant Bay,JM,76.71,overcast clouds,17.8815,-76.4093,Whispering Bamboo Cove Resort
17,Mataura,NZ,61.2,clear sky,-46.1927,168.8643,Ellie's Villa
18,Rezekne,LV,32.52,clear sky,56.5,27.3167,Hotel Latgale Hotel
19,Hobart,AU,78.03,broken clouds,-42.8794,147.3294,St Ives Hobart Accommodation Tasmania
20,Swellendam,ZA,57.42,clear sky,-34.0226,20.4417,De Kloof Heritage Estate boutique Hotel & SPA
21,La Ronge,CA,36.95,broken clouds,55.1001,-105.2842,Northland Motor Hotel
25,Fortuna,US,51.93,scattered clouds,40.5982,-124.1573,Super 8 by Wyndham Fortuna
26,Afsin,TR,50.99,overcast clouds,38.2477,36.914,Afsin Ogretmenevi ASO
27,Hasaki,JP,73.29,clear sky,35.7333,140.8333,Inubosaki Kanko Hotel
29,Coihaique,CL,51.75,broken clouds,-45.5752,-72.0662,Diego De Almagro Coyhaique
31,Kavaratti,IN,83.05,light rain,10.5669,72.642,Hotels in Lakshadweep Islands
32,Carutapera,BR,75.18,overcast clouds,-1.195,-46.02,Lidera
33,Pacific Grove,US,73.45,broken clouds,36.6177,-121.9166,Lovers Point Inn
34,Avarua,CK,84.25,scattered clouds,-21.2078,-159.775,Paradise Inn
36,Rawson,AR,61.09,scattered clouds,-43.3002,-65.1023,Hosteria Sampedro
37,Butaritari,KI,80.71,light rain,3.0707,172.7902,Isles Sunset Lodge
39,Moose Factory,CA,26.58,overcast clouds,51.2585,-80.6094,Moosonee Lilypad
40,Hithadhoo,MV,83.14,scattered clouds,-0.6,73.0833,Scoop Guest House
41,Meulaboh,ID,78.66,broken clouds,4.1363,96.1285,Kost Pria
42,Mabaruma,GY,73.65,scattered clouds,8.2,-59.7833,Monty Brooms Guest House
43,Yulara,AU,84.04,clear sky,-25.2406,130.9889,Desert Gardens Hotel - Ayers Rock Resort
46,Hella,NO,38.05,scattered clouds,67.2,14.4333,Djupvatnet rasteplass
47,Arraial Do Cabo,BR,76.53,overcast clouds,-22.9661,-42.0278,Pousada Porto Praia
48,Atuona,PF,79.52,few clouds,-9.8,-139.0333,Villa Enata
49,Cape Town,ZA,62.11,clear sky,-33.9258,18.4232,"Radisson Blu Hotel Waterfront, Cape Town"
50,Punta Arenas,CL,46.51,broken clouds,-53.15,-70.9167,Hotel Hain
51,Acarau,BR,76.86,overcast clouds,-2.8856,-40.12,castelo pizzaria
52,Narsaq,GL,32.22,overcast clouds,60.9167,-46.05,Sleep In Narsaq
53,Boundiali,CI,81.88,overcast clouds,9.5217,-6.4869,Hotel Paysan Boundiali
54,Sakakah,SA,62.17,clear sky,29.9697,40.2064,Fakhamat Al Orjoana Apartment
55,Lebu,CL,50.94,clear sky,-37.6167,-73.65,Hostal Las Lilas
56,Mahuva,IN,80.49,clear sky,21.0914,71.7622,Hotel Blue Diamond.
57,Omboue,GA,74.62,overcast clouds,-1.5746,9.2618,Hotel Olako
58,Upernavik,GL,-6.75,scattered clouds,72.7868,-56.1549,Café de Upernavik
59,Atar,MR,75.42,clear sky,20.5169,-13.0499,Oumou Elghoura
60,Mar Del Plata,AR,67.08,broken clouds,-38.0023,-57.5575,Gran Hotel Mar del Plata
61,Soyo,AO,78.44,overcast clouds,-6.1349,12.3689,Hotel Mpampa
62,Sao Joao Da Barra,BR,77.16,moderate rain,-21.6403,-41.0511,Pousada Porto De Canoas
64,Nikolskoye,RU,33.69,scattered clouds,59.7035,30.7861,Tourist House - Sablino
65,Talnakh,RU,-3.8,overcast clouds,69.4865,88.3972,Talnakh Hotel
66,Saint-Philippe,RE,76.59,light rain,-21.3585,55.7679,"Chambres d'hôte ""La Trinité"""
67,Hoi An,VN,76.96,scattered clouds,15.8794,108.335,Belle Maison Hadana Hoi An managed by H&K Hospitality
68,Guerrero Negro,MX,70.66,clear sky,27.9769,-114.0611,"Casa Laguna, Bed & Breakfast"
71,Ternate,ID,83.44,overcast clouds,0.8,127.4,Sahid Bela Ternate Hotel
73,Barrow,US,-7.58,clear sky,71.2906,-156.7887,King Eider Inn
74,Kununurra,AU,87.78,broken clouds,-15.7667,128.7333,Hotel Kununurra
76,Bandarbeyla,SO,78.76,overcast clouds,9.4942,50.8122,JABIR HOTEL
77,Raudeberg,NO,38.07,overcast clouds,61.9875,5.1352,Nordre Silda.
79,Tasiilaq,GL,24.96,overcast clouds,65.6145,-37.6368,The Red House
80,Georgetown,MY,84.13,thunderstorm,5.4112,100.3354,Cititel Penang
81,Ribeira Grande,PT,56.62,scattered clouds,38.5167,-28.7,Quinta da Meia Eira
82,Carnarvon,AU,73.47,scattered clouds,-24.8667,113.6333,Hospitality Carnarvon
83,Bacolod,PH,75.47,heavy intensity rain,10.6667,122.95,Planta Hotel & Residences
84,Constitucion,CL,53.01,clear sky,-35.3333,-72.4167,Hotel Boutique Las Azucenas
85,Pell City,US,51.49,scattered clouds,33.5862,-86.2861,Hampton Inn Pell City
86,Port Augusta,AU,83.32,clear sky,-32.5,137.7667,Majestic Oasis Apartments
87,Husavik,IS,21.15,overcast clouds,66.0449,-17.3389,Bjarnabúð
88,Mata,PT,48.97,broken clouds,40.683,-7.4592,Hostel EntryFik
89,Hermanus,ZA,61.81,clear sky,-34.4187,19.2345,Misty Waves Boutique Hotel
90,Veraval,IN,78.76,clear sky,20.9,70.3667,Lords Inn Somnath
91,Dingle,PH,74.86,moderate rain,10.9995,122.6711,SEGAYA PROPERTY
92,Thunder Bay,CA,35.58,few clouds,48.4001,-89.3168,Victoria Inn Hotel and Convention Centre
93,Bolobo,CD,72.66,light rain,-2.1667,16.2333,Hotel de Stephen
94,Hornepayne,CA,29.91,overcast clouds,49.2138,-84.7705,Kay-Vee Lodge Ltd
95,Bilibino,RU,-4.05,overcast clouds,68.0546,166.4372,Gostinitsa Severyanka
96,Kamaishi,JP,60.08,clear sky,39.2667,141.8833,Hotel Route Inn Kamaishi
97,Yar-Sale,RU,11.34,overcast clouds,66.8333,70.8333,Yalemd
99,Riyadh,SA,75.34,overcast clouds,24.6877,46.7219,"InterContinental Riyadh, an IHG Hotel"
100,San Felipe,VE,71.04,broken clouds,10.3399,-68.7425,Posada Llovizna Rodríguez
101,Vila Franca Do Campo,PT,57.61,broken clouds,37.7167,-25.4333,Pestana Bahia Praia
102,Umm Lajj,SA,74.89,clear sky,25.0213,37.2685,Moon light Furnished Units
103,Wah,PK,74.01,clear sky,33.798,72.6957,UW Boys Hostel 27 Area Wah
104,Boa Esperanca,BR,69.3,overcast clouds,-21.09,-45.5658,Hotel do Lago
105,Knysna,ZA,58.91,clear sky,-34.0363,23.0471,Protea Hotel by Marriott Knysna Quays
106,Aguimes,ES,59.63,few clouds,27.9054,-15.4461,Hotel Villa de Aguimes
107,Port Lincoln,AU,70.9,overcast clouds,-34.7333,135.8667,Port Lincoln Hotel
108,Constantine,DZ,49.41,clear sky,36.365,6.6147,Grand Hotel Cirta
109,Touros,BR,79.93,overcast clouds,-5.1989,-35.4608,INN NEW HORIZON
110,Coari,BR,74.39,overcast clouds,-4.085,-63.1414,Dellrey Hotel Center
111,Sinnamary,GF,77.68,overcast clouds,5.3833,-52.95,ALETHEIA Appartement Sinnamary
112,Vardo,NO,35.35,few clouds,70.3705,31.1107,Vardø Hotel AS
113,Maceio,BR,76.44,few clouds,-9.6658,-35.7353,Hotel Ponta Verde Maceió
114,Jamestown,US,35.24,overcast clouds,42.097,-79.2353,Hampton Inn & Suites Jamestown
115,Severo-Kurilsk,RU,31.23,overcast clouds,50.6789,156.125,Kak Doma
116,Ust-Nera,RU,5.05,scattered clouds,64.5667,143.2,Hotel Ust-Nera
117,Matagami,CA,28.51,overcast clouds,49.7502,-77.6328,Hôtel Matagami
118,Souillac,MU,75.58,light intensity shower rain,-20.5167,57.5167,Shanti Maurice Resort & Spa
119,Bonavista,CA,33.4,snow,48.6499,-53.1147,Sweet Sharons bnb
121,Marawi,PH,73.87,overcast clouds,7.9986,124.2928,Derogongan Residence
122,Toyooka,JP,73.45,clear sky,35.5333,134.8333,O Hotel Toyooka
123,Deputatskiy,RU,-2.29,clear sky,69.3,139.9,Baza Otdykha
124,Mao,ES,46.96,scattered clouds,39.8885,4.2658,ARTIEM Capri
125,Faanui,PF,82.33,light rain,-16.4833,-151.75,Bora-Bora Pearl Beach Resort & Spa
126,Cabo San Lucas,MX,78.1,clear sky,22.8909,-109.9124,Hotel Tesoro Los Cabos
127,Broome,US,43.7,overcast clouds,42.2506,-75.833,Chenango Valley State Park
128,Redlands,US,84.07,clear sky,34.0556,-117.1825,Dynasty Suites Redlands
129,Porto Novo,BJ,76.82,overcast clouds,6.4965,2.6036,Tour Eiffel Hotel Benin
130,Mwinilunga,ZM,62.2,moderate rain,-11.7358,24.4293,Kwakuwahi Lodge
131,Diego De Almagro,CL,60.48,clear sky,-26.3667,-70.05,hotel luna del desierto
132,Vila Velha,BR,80.55,few clouds,-20.3297,-40.2925,Hotel Vitória Palace
133,Cockburn Town,TC,78.75,overcast clouds,21.4612,-71.1419,Osprey Beach Hotel
134,Ridgecrest,US,84.47,clear sky,35.6225,-117.6709,SpringHill Suites by Marriott Ridgecrest
135,Hildburghausen,DE,33.37,few clouds,50.4255,10.7318,Pension Thüringer Hof
136,Paita,PE,71.56,overcast clouds,-5.0892,-81.1144,Hotel Náutico de Paita
137,Tuktoyaktuk,CA,5.0,broken clouds,69.4541,-133.0374,End of The Road Ltd.
138,Kodiak,US,42.31,clear sky,57.79,-152.4072,Best Western Kodiak Inn And Convention Center
139,Ifakara,TZ,71.69,light rain,-8.1333,36.6833,Tanzanian Training Centre for International Health
140,Khatanga,RU,4.59,overcast clouds,71.9667,102.5,"""Khatanga"""
141,San Patricio,US,74.53,overcast clouds,28.017,-97.5169,"Motel 6 Sinton, TX"
142,Qaanaaq,GL,-1.48,overcast clouds,77.484,-69.3632,Qaanaaq Hotel
143,Lubango,AO,62.37,scattered clouds,-14.9172,13.4925,Hotel Serra da Chela
144,Bambous Virieux,MU,75.45,light intensity shower rain,-20.3428,57.7575,Casa Tia Villa
145,Nador,MA,53.85,clear sky,35.174,-2.9287,Hôtel La Giralda
146,Lorengau,PG,83.79,broken clouds,-2.0226,147.2712,Lorengau Harbourside Hotel
147,Kousseri,CM,88.07,overcast clouds,12.0769,15.0306,Le Pilotis
148,Petropavlovsk-Kamchatskiy,RU,36.19,clear sky,53.0452,158.6483,The Hotel Petropavlovsky
149,Svetogorsk,RU,30.85,clear sky,61.1121,28.8632,Lesogorskaya Resort
150,Tommot,RU,24.39,clear sky,58.9564,126.2925,Gostinitsa Tommot
151,Mosquera,CO,59.09,scattered clouds,4.7059,-74.2302,Hotel SJ
152,Washington,US,45.9,clear sky,47.5001,-120.5015,"Cashmere Cider Mill Guest Suites, Weddings & Tasting Room"
153,Kruisfontein,ZA,63.88,broken clouds,-34.0033,24.7314,Oyster Bay House Rental
155,Tucurui,BR,74.3,heavy intensity rain,-3.7661,-49.6725,BBB Rooms Centro Tucurui PA
157,Port Elizabeth,ZA,66.09,overcast clouds,-33.918,25.5701,39 On Nile Guest House
158,Wajima,JP,74.08,clear sky,37.4,136.9,Wajiima Onsen Yashio
160,Castro,BR,64.85,overcast clouds,-24.7911,-50.0119,CHACARA BAILLY
161,Kantunilkin,MX,67.66,overcast clouds,21.0917,-87.45,Posada Paraiso
163,Impfondo,CG,71.74,overcast clouds,1.6381,18.0667,Auberge La Place de Jules
164,Visby,SE,37.81,scattered clouds,57.6409,18.296,Best Western Solhem Hotel Visby
165,Ahipara,NZ,69.48,broken clouds,-35.1667,173.1667,Ahipara Holiday Park
166,Buchanan,LR,76.55,heavy intensity rain,5.8808,-10.0467,Kamaneahn Hotel Inc
167,Tiksi,RU,-8.25,broken clouds,71.6872,128.8694,Arktika
168,Broken Hill,AU,78.4,clear sky,-31.95,141.4333,Royal Exchange Hotel
169,Ambon,ID,86.14,scattered clouds,-3.6954,128.1814,Swiss-Belhotel Ambon
170,Bredasdorp,ZA,60.76,few clouds,-34.5322,20.0403,Bredasdorp Country Manor
171,Cuauhtemoc,MX,68.97,broken clouds,28.4167,-106.8667,Motel Tarahumara Inn
172,Mount Gambier,AU,77.11,overcast clouds,-37.8333,140.7667,The Commodore
173,Bulgan,MN,32.61,light snow,48.8125,103.5347,Unitel Булган салбар
174,Buguruslan,RU,42.35,overcast clouds,53.6554,52.442,Gostinitsa Russkaya Piramida
175,Bontang,ID,78.73,overcast clouds,0.1333,117.5,KOPKAR Hotel Bintang Sintuk
176,Ereymentau,KZ,33.35,few clouds,51.6199,73.1033,"Gostinitsa ""Dostyk"""
177,Tabou,CI,80.37,light rain,4.423,-7.3528,hotêl doufoulougou
178,Ivdel,RU,34.09,overcast clouds,60.6911,60.4206,Ivdel'
179,Ambilobe,MG,71.98,broken clouds,-13.2,49.05,Hôtel & Restaurant DIANA Ambilobe
180,Kalmar,SE,38.97,overcast clouds,56.6616,16.3616,First Hotel Witt
181,Geraldton,AU,64.81,broken clouds,-28.7667,114.6,Broadwater Mariner Resort
182,Pisco,PE,66.25,clear sky,-13.7,-76.2167,Hotel San Isidro Oficial
183,Margate,GB,43.7,overcast clouds,51.3813,1.3862,Premier Inn Margate hotel
184,Kachug,RU,33.15,overcast clouds,53.9606,105.8817,"The hotel ""Empire"""
185,Victoria,HK,78.24,clear sky,22.2855,114.1577,Mini Hotel Central
186,Kaitangata,NZ,62.06,clear sky,-46.2817,169.8464,Kaitangata Motor Camp
187,Bang Saphan,TH,81.68,overcast clouds,11.2126,99.5117,Ladawan Boutique Hotel
188,Tongren,CN,70.74,few clouds,27.7172,109.1853,Fanjing Mountain International Conference Center
189,Ponta Do Sol,PT,61.0,broken clouds,32.6667,-17.1,Hotel do Campo
190,Paamiut,GL,23.77,overcast clouds,61.994,-49.6678,Pistut
191,Nouadhibou,MR,62.58,clear sky,20.931,-17.0347,El Medina
192,Fort Nelson,CA,40.59,few clouds,58.8053,-122.7002,The Fort Nelson Hotel
193,Tutoia,BR,77.13,light rain,-2.7619,-42.2744,Pousada Guará's
194,Harer,ET,60.58,clear sky,9.3094,42.1258,Amir Cultural Harari Guesthouse
195,Joura,IN,82.85,clear sky,26.3411,77.8115,Shubh medical store joura
196,Padang,ID,80.65,overcast clouds,-0.9492,100.3543,Mercure Padang
197,Faya,SA,59.11,clear sky,18.3851,42.4509,املاك خالد الشعشوع
198,Mahebourg,MU,75.49,light intensity shower rain,-20.4081,57.7,Shandrani Beachcomber Resort & Spa
199,Iqaluit,CA,20.93,light snow,63.7506,-68.5145,Frobisher Inn
200,Coquimbo,CL,55.13,clear sky,-29.9533,-71.3436,Hotel San Juan
201,Namibe,AO,71.15,clear sky,-15.1961,12.1522,Hotel Chik Chik Namibe
202,New Norfolk,AU,77.67,overcast clouds,-42.7826,147.0587,The Shingles Riverside Cottages
203,Grand Gaube,MU,75.6,clear sky,-20.0064,57.6608,Veranda Paul et Virginie Hotel & Spa
204,Isangel,VU,84.85,clear sky,-19.55,169.2667,Tanna Lodge
205,Letlhakane,BW,61.25,scattered clouds,-21.4167,25.5833,Motswedi Hotel
206,Longyearbyen,SJ,19.24,scattered clouds,78.2186,15.6401,"Radisson Blu Polar Hotel, Spitsbergen"
207,Puerto Ayora,EC,78.71,few clouds,-0.7393,-90.3518,Finch Bay Galapagos Hotel
208,Sorland,NO,39.78,overcast clouds,67.667,12.6934,Sjybrygga fiskecamp
209,Praia Da Vitoria,PT,53.85,few clouds,38.7333,-27.0667,Hotel Branco I
210,Oussouye,SN,72.1,clear sky,12.485,-16.5469,Auberge du Routard
211,Kaarina,FI,34.77,few clouds,60.4072,22.369,Hotel Kivitasku
212,Morgantown,US,39.31,overcast clouds,39.6295,-79.9559,Morgantown Marriott at Waterfront Place
214,Hobyo,SO,81.01,few clouds,5.3505,48.5268,Iftin hotel hobyo
215,Kavieng,PG,84.25,overcast clouds,-2.5744,150.7967,Nusa Island Retreat
216,Hilo,US,73.26,moderate rain,19.7297,-155.09,Hilo Hawaiian Hotel
217,Alofi,NU,85.89,scattered clouds,-19.0595,-169.9187,Taloa Heights
218,East London,ZA,64.42,light rain,-33.0153,27.9116,Tu Casa
219,Belmonte,BR,77.58,scattered clouds,-15.8631,-38.8828,Pousada Monte Carmelo O Pão
220,Havelock,US,55.35,overcast clouds,34.8791,-76.9013,Sherwood Motel
221,Dicabisagan,PH,79.84,broken clouds,17.0818,122.4157,Nancy Montanes Bernardo
222,Lively,CA,33.03,overcast clouds,46.4334,-81.1498,Lively Inn and Suites - Sudbury
224,Tamale,GH,85.24,overcast clouds,9.4008,-0.8393,Tap Hotel
225,Stromness,GB,35.56,moderate rain,58.965,-3.296,The Old Smokery
226,Dubrovnik,HR,58.64,scattered clouds,42.6481,18.0922,Hotel Dubrovnik Palace
228,Torbay,CA,35.28,fog,47.6666,-52.7314,Gallows Cove
229,Dzaoudzi,YT,76.89,clear sky,-12.7887,45.2699,Le Rocher
230,Zhicheng,CN,77.38,clear sky,30.2956,111.5047,Wangjiang Building
231,Siirt,TR,48.11,clear sky,37.9326,41.9403,Barden Otel
232,Kutahya,TR,49.19,clear sky,39.4242,29.9833,Grand Çınar Hotel
234,Mecca,SA,81.09,clear sky,21.4267,39.8261,"Makkah Clock Royal Tower, A Fairmont Hotel"
235,Tautira,PF,81.64,scattered clouds,-17.7333,-149.15,Pension Oaoa
236,Saint Anthony,US,51.73,clear sky,45.0205,-93.218,"Holiday Inn Express Roseville-St. Paul, an IHG Hotel"
237,Hutchinson,US,67.95,clear sky,38.0608,-97.9298,Hampton Inn Hutchinson
238,Klaksvik,FO,34.72,overcast clouds,62.2266,-6.589,Airbnb rooms
239,Saint-Francois,FR,30.67,clear sky,46.4154,3.9054,Manoir Du Bonheur
240,Prachuap Khiri Khan,TH,79.68,overcast clouds,12.2167,99.75,ผกากรองรีสอร์ท
241,Gat,IL,64.4,clear sky,31.61,34.7642,OlusHome
242,Pevek,RU,-9.13,few clouds,69.7008,170.3133,Severnoye Zoloto
243,Sharanga,RU,36.59,overcast clouds,57.1775,46.5396,Yuronga
244,Mehamn,NO,34.39,overcast clouds,71.0357,27.8492,Mehamn Arctic Hotel AS
245,Mtwara,TZ,74.57,clear sky,-10.2667,40.1833,TIL Hotels Mtwara
246,Hvide Sande,DK,40.08,few clouds,56.0045,8.1294,Hvide Sande Hotel
247,Selma,US,80.1,clear sky,36.5708,-119.6121,"Holiday Inn Selma-Swancourt, an IHG Hotel"
249,Malindi,KE,81.54,few clouds,-3.2175,40.1191,African House Resort
251,Caravelas,BR,76.17,clear sky,-17.7125,-39.2481,Pousada dos Navegantes
252,Vao,NC,77.81,overcast clouds,-22.6667,167.4833,Hotel Kou-Bugny
253,Lagoa,PT,55.35,overcast clouds,39.05,-27.9833,Casa Das Faias
254,Antalaha,MG,72.57,broken clouds,-14.9003,50.2788,Hotel Vitasoa
255,Porto Santo,PT,61.18,few clouds,33.072,-16.3415,Hotel Porto Santo & Spa
256,Taft,IR,64.35,clear sky,31.7471,54.2088,عمارت ساعتی تفت
257,Bartlesville,US,71.55,clear sky,36.7473,-95.9808,Hilton Garden Inn Bartlesville
258,Cadillac,US,31.91,broken clouds,44.2519,-85.4012,"Holiday Inn Express & Suites Cadillac, an IHG Hotel"
259,Chandil,IN,80.4,few clouds,22.9667,86.05,Sagun Hembram
260,Chardara,KZ,67.14,overcast clouds,41.2547,67.9692,Жанаргул
262,Kampot,KH,78.85,overcast clouds,10.6167,104.1833,Two Moons Hotel
264,Mizdah,LY,60.94,clear sky,31.4451,12.9801,محمدالمبروك الاريقط
265,Tateyama,JP,64.54,clear sky,34.9833,139.8667,Tateyama Seaside Hotel
267,Ust-Tsilma,RU,36.72,overcast clouds,65.441,52.1498,U Praskov'i
268,Portland,US,51.46,broken clouds,45.5234,-122.6762,Embassy Suites by Hilton Portland Downtown
269,Male,MV,84.24,broken clouds,4.1748,73.5089,Hotel Octave Maldives
270,La Maddalena,IT,53.65,clear sky,41.2142,9.4083,Hotel Il Gabbiano
271,Nouakchott,MR,69.73,clear sky,18.0858,-15.9785,HOTEL IMAN
273,Cabinda,AO,78.51,light rain,-5.55,12.2,Hotel Maiombe
274,Aberdeen,GB,32.65,broken clouds,57.1437,-2.0981,Premier Inn Aberdeen City Centre hotel
275,Igra,RU,36.73,overcast clouds,57.5558,53.0547,Hostel Dilizhans
276,Saint-Pierre,RE,76.68,overcast clouds,-21.3393,55.4781,Lindsey Hôtel
277,Itupiranga,BR,75.06,light rain,-5.1347,-49.3267,Hotel Panorama
278,Bethel,US,46.94,few clouds,41.3712,-73.414,Courtyard by Marriott Danbury
279,Zeya,RU,33.4,overcast clouds,53.75,127.2667,Kapital Inn
280,Dunedin,NZ,61.84,clear sky,-45.8742,170.5036,Scenic Hotel Southern Cross
281,Buala,SB,85.55,broken clouds,-8.145,159.5921,Maringe Lagoon Lodge
282,Warkworth,NZ,72.91,few clouds,-36.4,174.6667,Bridge House Lodge Bar & Restaurant
283,Brae,GB,36.84,overcast clouds,60.3964,-1.353,Busta House Hotel
284,Mandurah,AU,68.92,clear sky,-32.55,115.7,Atrium Hotel Mandurah
285,Saint George,US,84.43,clear sky,37.1041,-113.5841,Best Western Plus Abbey Inn
286,Bafilo,TG,74.46,overcast clouds,9.35,1.2667,Hôtel Assoli
287,Zephyrhills,US,60.94,clear sky,28.2336,-82.1812,Microtel Inn & Suites by Wyndham Zephyrhills
288,Rio Branco,BR,77.61,thunderstorm,-9.9747,-67.81,Hotel Guapindaia Bosque
289,Kachiry,KZ,33.42,clear sky,53.0675,76.1036,"Ночной клуб BasMax, Гостиница , Ресторан , Магазин-автозап. сто вулканизатор ,"
290,Williams Lake,CA,40.05,broken clouds,52.1415,-122.1445,Stampeder Motel
291,Havoysund,NO,37.63,overcast clouds,70.9963,24.6622,Arctic View Glamping & Restaurant
292,San Angelo,US,82.62,clear sky,31.4638,-100.437,"Motel 6 San Angelo, TX"
294,La Paz,BO,44.58,broken clouds,-16.5,-68.15,Hotel Presidente
295,Miguel Hidalgo,MX,56.61,overcast clouds,19.4225,-99.2028,JW Marriott Hotel Mexico City
296,Kosh-Agach,RU,18.81,clear sky,50.0,88.6667,Fermerskiy Dom v Kosh-Agache
297,Yarada,IN,82.72,mist,17.65,83.2667,Yarada Jungle Beach Resorts
298,Mayo,US,51.98,few clouds,38.8876,-76.5119,Resorts Resource Group International
299,Libreville,GA,75.22,few clouds,0.3925,9.4537,Le Méridien Re-Ndama
300,Vestmanna,FO,32.92,overcast clouds,62.1564,-7.1664,Vestmanna Camping
301,Urumqi,CN,49.15,clear sky,43.801,87.6005,Hua Ling Grand Hotel Urumqi
302,Lasa,IT,31.69,scattered clouds,46.6166,10.7002,Pension Feldgärtenhof
303,Qasigiannguit,GL,8.85,broken clouds,68.8193,-51.1922,Almost HOME
304,Kaeo,NZ,68.32,overcast clouds,-35.1,173.7833,Bushido Lodge
305,Najran,SA,66.85,clear sky,17.4924,44.1277,محمد هادي ال فطيح
306,Koppies,ZA,52.59,light rain,-27.2418,27.5742,Friesland Hotel
307,Carballo,ES,54.01,overcast clouds,43.213,-8.691,Pazo do Souto
308,Morococha,PE,36.7,light rain,-11.5997,-76.1411,Hospedaje Havipor
309,Vad,RU,37.45,overcast clouds,55.5301,44.2114,Riv'yera Rezort Otel'
310,Namwala,ZM,64.51,overcast clouds,-15.7504,26.4384,Corner Point Lodge
311,Alekseyevskoye,RU,37.74,overcast clouds,55.3071,50.1135,"Motel' ""Kurlyanka"""
312,Mogadishu,SO,81.1,overcast clouds,2.0371,45.3438,Hotel Juba
313,Sovetskiy,RU,32.56,overcast clouds,61.3614,63.5842,Apartment on Kievskaya 29
314,Westport,US,49.98,few clouds,41.1415,-73.3579,The Inn at Longshore
315,Ferrol,ES,53.67,overcast clouds,43.4832,-8.2369,Hotel Spa Sercotel Odeón
316,Esperance,AU,61.5,broken clouds,-33.8667,121.9,Hospitality Esperance
317,Presidencia Roque Saenz Pena,AR,72.39,overcast clouds,-26.7852,-60.4388,Hotel Gualok
318,Hofn,IS,30.61,overcast clouds,64.2539,-15.2082,Hótel Höfn
319,Inuvik,CA,9.36,light snow,68.3499,-133.7218,Nova Inn Inuvik
320,Hohhot,CN,64.69,scattered clouds,40.8106,111.6522,Sheraton Hohhot Hotel
321,Korla,CN,64.51,overcast clouds,41.7597,86.1469,Gulisitan Hotel
322,Seydi,TM,72.32,overcast clouds,39.4816,62.9137,Seydi oteli
323,Harper,LR,79.92,light rain,4.375,-7.7169,Screensaver
324,Chuy,UY,65.03,scattered clouds,-33.6971,-53.4616,Nuevo Hotel Plaza
325,Salym,RU,13.87,overcast clouds,60.0625,71.4789,Gostinitsa Salym
326,Mangochi,MW,66.78,few clouds,-14.4782,35.2645,Fort Johnstone Hotel
327,Chapais,CA,31.78,overcast clouds,49.7834,-74.8492,Hôtel Opémiska
328,Sambava,MG,73.44,overcast clouds,-14.2667,50.1667,Melrose
329,Brunswick,US,39.25,overcast clouds,41.2381,-81.8418,Quality Inn Brunswick Cleveland South
330,Ilulissat,GL,8.62,overcast clouds,69.2167,-51.1,Hotel Arctic
332,Svetlogorsk,BY,37.15,overcast clouds,52.6333,29.7333,Hotel Svetlogorsk JBIK
333,Paducah,US,57.33,clear sky,37.0834,-88.6001,"Holiday Inn Paducah Riverfront, an IHG Hotel"
334,Pemangkat,ID,79.83,broken clouds,1.1667,108.9667,Ramah Kost KITA
335,Ulaangom,MN,31.95,overcast clouds,49.9811,92.0667,Achit Nuur Hotel & Restaurant
336,Miedzyrzec Podlaski,PL,33.85,few clouds,51.9864,22.7825,Las Vegas. Usługi hotelarskie. Borkowicz B
337,Sandwick,GB,37.22,overcast clouds,60.0,-1.25,Beach House Self-Catering Accomodation
338,Sao Felix Do Xingu,BR,72.95,overcast clouds,-6.6447,-51.995,Rio Xingu Camping
339,Lompoc,US,77.56,haze,34.6391,-120.4579,"Holiday Inn Express Lompoc, an IHG Hotel"
340,Bereda,ES,46.58,overcast clouds,43.2686,-7.5406,Pazo de Verdes
341,Tarquinia,IT,44.64,overcast clouds,42.2482,11.7553,Hotel Villa Tirreno
343,Karlovac,HR,40.14,overcast clouds,45.4872,15.5478,Hotel Europe
344,Port Blair,IN,81.79,overcast clouds,11.6667,92.75,"Welcomhotel By ITC Hotels, Bay Island, Port Blair"
345,Bridlington,GB,37.89,overcast clouds,54.0831,-0.1919,Expanse Bridlington Seafront Hotel
346,Khuzhir,RU,32.36,overcast clouds,53.1939,107.3397,Отель на озере Байкал Baikal View
347,Pangai,TO,81.88,scattered clouds,-19.8,-174.35,Ha'apai Beach Resort
348,Champerico,GT,83.59,overcast clouds,14.3,-91.9167,"Hotel y restaurante ""El Diamante"""
349,Luena,AO,62.82,overcast clouds,-11.7833,19.9167,Hotel Kandamba
351,Yanam,IN,77.76,few clouds,16.7333,82.2167,The Regency Hotel
352,Tshikapa,CD,70.48,overcast clouds,-6.4167,20.8,Hôtel Tshia-Muntu de Tshikapa
353,Kushima,JP,70.56,clear sky,31.4583,131.2333,Hanaoka
354,Saldanha,ZA,64.45,clear sky,-33.0117,17.9442,Blue Bay Lodge
355,Abha,SA,58.82,clear sky,18.2164,42.5053,Abha Hotel
357,College,US,21.58,few clouds,64.8569,-147.8028,Pike's Waterfront Lodge
358,Aklavik,CA,8.44,overcast clouds,68.2191,-135.0107,Aklavik Inn
359,Camacha,PT,58.42,few clouds,33.0833,-16.3333,Hotel Porto Santo & Spa
360,Road Town,VG,77.09,scattered clouds,18.4167,-64.6167,"ZINGARA 76ft Catamaran, full crew-all included"
361,Yerofey Pavlovich,RU,30.58,overcast clouds,53.9667,121.9667,lounges and warm parking
362,Buraydah,SA,72.05,scattered clouds,26.326,43.975,Mövenpick Qassim
363,Sault Sainte Marie,CA,32.29,overcast clouds,46.5168,-84.3333,Comfort Inn
364,Maragogi,BR,78.24,overcast clouds,-9.0122,-35.2225,Salinas do Maragogi All Inclusive Resort
365,Xining,CN,52.95,clear sky,36.6167,101.7667,Super Leisure Hotel
367,Daoukro,CI,74.59,broken clouds,7.0591,-3.9631,Komenan brou roseline
368,Bengkulu,ID,80.01,scattered clouds,-3.8004,102.2655,Grage Hotel Bengkulu
369,Obihiro,JP,56.61,clear sky,42.9172,143.2044,Tokachi Gardens Hotel
370,Myitkyina,MM,72.54,clear sky,25.3833,97.4,Shwe Phyu Hotel
371,Palivere,EE,36.63,overcast clouds,58.9664,23.8911,Roska kodu
372,Killorglin,IE,44.02,overcast clouds,52.1,-9.7833,Reeks Lodge
373,Codrington,AU,77.43,overcast clouds,-38.2667,141.9667,Codrington Gardens Bed And Breakfast
374,Belyy Yar,RU,32.86,light shower snow,53.6039,91.3903,Pasportnyy Stol
375,Bambanglipuro,ID,80.24,overcast clouds,-7.95,110.2833,Puri Brata
376,Vinkovci,HR,44.26,broken clouds,45.2883,18.8047,Hotel Gem
377,Jizan,SA,79.74,clear sky,17.3333,42.6667,شهدان. ابوالحجر
378,Priladozhskiy,RU,30.52,overcast clouds,59.85,31.4833,Grand Putilovo Plaza Royal: Resort & SPA
379,Tuatapere,NZ,61.92,clear sky,-46.1333,167.6833,Ron and Tony's Bed & Breakfast
380,Volchikha,RU,32.31,clear sky,52.0333,80.3833,Gostinitsa
381,Darhan,MN,37.78,overcast clouds,49.4867,105.9228,Buudai Hotel
382,Consett,GB,32.36,overcast clouds,54.854,-1.8316,Derwent Manor Boutique Hotel
383,Idaho Falls,US,42.89,overcast clouds,43.4666,-112.0341,Hilton Garden Inn Idaho Falls
384,Anadyr,RU,32.5,few clouds,64.75,177.4833,Отке17.ру — жильё для командированных
385,Antofagasta,CL,61.88,broken clouds,-23.65,-70.4,"Holiday Inn Express Antofagasta, an IHG Hotel"
386,Andra,RU,27.27,overcast clouds,62.5147,65.8878,"Gostinitsa ""Ob'"""
387,Santa Isabel,BR,71.31,overcast clouds,-23.3156,-46.2214,Chácara Sombra do Altíssimo
389,Hollins,US,41.49,overcast clouds,37.3413,-79.9431,"Country Inn & Suites by Radisson, Roanoke, VA"
391,Jibuti,DJ,72.66,few clouds,11.5,42.5,Orchid Main Camp Goubet
392,Sibolga,ID,80.76,broken clouds,1.7427,98.7792,Hotel Syariah CN Darussalam
393,Patterson,US,75.15,clear sky,37.4716,-121.1297,Best Western Plus Villa Del Lago Inn
394,Cidreira,BR,70.29,overcast clouds,-30.1811,-50.2056,Hotel Castelo
395,Duminichi,RU,45.03,overcast clouds,53.9345,35.1099,"Gostinitsa Ooo ""Td ""Khot'kovo"""
396,Strezhevoy,RU,2.3,overcast clouds,60.7333,77.5889,Sibiryachka
397,Nemuro,JP,39.04,broken clouds,43.3236,145.575,Hotel Nemuro Kaiyoutei
398,Zhanakorgan,KZ,63.36,overcast clouds,43.9098,67.2495,"""Ақпалас"" қонақ үйі"
399,La Tuque,CA,35.85,overcast clouds,47.4334,-72.7824,Appart-Hôtel La Tuque
400,Salihli,TR,57.25,clear sky,38.4826,28.1477,Ozcelik Hotel
401,Benxi,CN,64.72,light rain,41.2886,123.765,Yaju Business Hotel
402,Kolokani,ML,84.0,clear sky,13.5728,-8.0339,Lycee Famolo Coulibalibali De Kolokani
403,Upington,ZA,59.38,scattered clouds,-28.4478,21.2561,River Place Manor
404,Makat,KZ,51.46,few clouds,47.6469,53.3463,Umit
405,Carbondale,US,49.05,clear sky,37.7273,-89.2168,Best Western Saluki Inn
406,Olafsvik,IS,38.12,overcast clouds,64.8945,-23.7142,Hotel Olafsvik
407,Maunabo,PR,78.64,scattered clouds,18.0072,-65.8993,Maunacaribe
408,Turukhansk,RU,-6.45,overcast clouds,65.8167,87.9833,"ООО ""Туруханская пушнина"""
409,Svobodnyy,RU,34.92,light snow,51.4,128.1333,Alekseevskij Hotel
410,Tohana,IN,77.85,clear sky,29.7,75.9,Bhatia Hotel
412,Siocon,PH,81.79,overcast clouds,7.7061,122.1353,ABS Hotel
413,Katsuura,JP,66.52,clear sky,35.1333,140.3,Katsuura Hotel Mikazuki
414,Prince Rupert,CA,41.09,scattered clouds,54.3161,-130.3201,Crest Hotel
415,Pinehurst,US,47.5,overcast clouds,35.1954,-79.4695,SpringHill Suites by Marriott Pinehurst Southern Pines
416,Cuamba,MZ,63.3,clear sky,-14.8031,36.5372,Hotel Vision
417,Porteirinha,BR,76.62,scattered clouds,-15.7433,-43.0283,Portal Palace Hotel
418,Bangangte,CM,64.18,light rain,5.1409,10.5198,Hôtel Cristal Foua Ndigong
420,Clyde River,CA,1.63,light snow,70.4692,-68.5914,Qamaq Hotel
421,Los Llanos De Aridane,ES,56.95,clear sky,28.6585,-17.9182,Valle Aridane
422,Huarmey,PE,69.44,overcast clouds,-10.0681,-78.1522,Hotel Miramar
423,Sioux Lookout,CA,37.47,overcast clouds,50.1001,-91.917,Knobby's Fly-In Camps
425,Bubaque,GW,76.21,clear sky,11.2833,-15.8333,"Casa Dora, Bubaque"
426,Sabang,ID,82.49,overcast clouds,5.8933,95.3214,Hotel Citra
427,Merrill,US,44.37,clear sky,45.1805,-89.6835,Prairie Motel
428,Boromo,BF,93.24,overcast clouds,11.75,-2.9333,Sama Camp
429,Sajanan,TN,52.72,clear sky,37.0573,9.2426,Centre de culture du tabac sejenene
430,Uni,RU,35.42,overcast clouds,57.7535,51.4923,Гостиница «Диалог»
431,Tazovskiy,RU,-16.89,overcast clouds,67.4667,78.7,TazHostel
432,Versalles,FR,38.01,clear sky,48.8,2.1333,Waldorf Astoria Versailles - Trianon Palace
433,Maniitsoq,GL,16.81,overcast clouds,65.4167,-52.9,Hotel Heilmann Lyberth
434,Awjilah,LY,70.56,broken clouds,29.1081,21.2869,المنزل
435,Dhidhdhoo,MV,84.24,moderate rain,6.8833,73.1,Dhidhoo beach
436,Vryheid,ZA,53.65,light rain,-27.7695,30.7917,Bivane Game Lodge
437,Fukue,JP,66.56,broken clouds,32.6881,128.8419,Goto Guesthouse Utojuku & SA Car Rental
438,San Rafael,AR,71.13,clear sky,-34.6177,-68.3301,Hotel San Rafael
439,Abbeyfeale,IE,43.99,overcast clouds,52.3814,-9.3025,Park Lodge
440,Cayenne,GF,82.09,broken clouds,4.9333,-52.3333,Hôtel Le Dronmi
441,Bo Rai,TH,81.77,clear sky,12.5728,102.5371,Baiboon Resort
442,Hazorasp,UZ,57.04,overcast clouds,41.3194,61.0742,Kemping wifi hotel
443,Yakeshi,CN,43.9,clear sky,49.2833,120.7333,Longhua Hotel
444,Zhob,PK,68.47,clear sky,31.3411,69.4481,ROOM # 105 DUBAI HOTEL ZHOB
445,Nhulunbuy,AU,92.01,clear sky,-12.2333,136.7667,East Arnhem Real Estate
446,Sungaipenuh,ID,70.74,scattered clouds,-2.0833,101.3833,Penginapan Citra Alam
447,Skjervoy,NO,33.8,overcast clouds,70.0311,20.9714,Skjervøy fiskecamp AS
449,Hokitika,NZ,62.2,scattered clouds,-42.7167,170.9667,Beachfront Hotel Hokitika
450,Bathsheba,BB,79.41,broken clouds,13.2167,-59.5167,Atlantis Hotel
451,Necochea,AR,60.33,overcast clouds,-38.5473,-58.7368,dyd -mar Hotel
452,Labuhan,ID,80.47,broken clouds,-6.8844,112.2051,DoubleFAG
453,Shirgaon,IN,79.77,overcast clouds,19.7,72.7,"Samarth Krupa Farm, Palghar"
454,Ishigaki,JP,77.13,broken clouds,24.3448,124.1572,Hotel Peace Land Ishigakijima
455,Rio Gallegos,AR,46.45,clear sky,-51.6226,-69.2181,Hotel Santa Cruz
456,Pathanamthitta,IN,73.38,overcast clouds,9.2667,76.7833,Vijaya Residency
457,Fuerte Olimpo,PY,82.56,broken clouds,-21.0415,-57.8738,Hospedaje DAMI
458,Berezovyy,RU,30.4,overcast clouds,51.6667,135.7,"Hotel ""Phoenix"""
459,Quelimane,MZ,71.96,scattered clouds,-17.8786,36.8883,Hotel Flamingo
460,Tiarei,PF,87.82,scattered clouds,-17.5333,-149.3333,Le Rocher de Tahiti
461,Palmer,US,45.01,few clouds,42.1584,-72.3287,Wedgewood Motel
462,Pandan,PH,79.61,moderate rain,14.0453,124.1694,Bonifacio Lodge
463,Naze,JP,70.72,overcast clouds,28.3667,129.4833,Shishime Hotel
466,Vaxjo,SE,35.65,scattered clouds,56.8777,14.8091,Elite Stadshotellet Vaxjo
467,Nuuk,GL,25.41,few clouds,64.1835,-51.7216,Vandrehuset
469,Dubai,AE,78.73,clear sky,25.2582,55.3047,"Radisson Blu Hotel, Dubai Deira Creek"
470,Gniezno,PL,35.38,clear sky,52.5348,17.5826,Hotel Feniks
472,Lerwick,GB,37.4,overcast clouds,60.1545,-1.1494,The Lerwick Hotel
473,Sao Filipe,CV,74.77,clear sky,14.8961,-24.4956,Hotel Xaguate
474,Bambui,BR,70.27,overcast clouds,-20.0064,-45.9769,Paulinelli Palace Hotel
475,Sapernoye,RU,31.48,few clouds,60.7167,29.9505,База отдыха «Юность»
476,Orcopampa,PE,46.15,overcast clouds,-15.2661,-72.3417,Happy Wasi
477,Novobirilyussy,RU,31.73,light snow,56.9514,90.6661,Gostinitsa
478,Hambantota,LK,77.34,few clouds,6.1241,81.1185,Bungalow 63
479,Zhanaozen,KZ,53.22,overcast clouds,43.3,52.8,K.korabay 28A
480,San Carlos De Bariloche,AR,40.75,scattered clouds,-41.1456,-71.3082,Hotel Patagonia
481,Prieska,ZA,61.2,light rain,-29.6641,22.7474,Avenue GuestHouse
482,Phan Thiet,VN,81.37,overcast clouds,10.9333,108.1,Hotel Saigon-PT
483,Laguna,US,76.28,clear sky,38.421,-121.4238,"Holiday Inn Express & Suites Elk Grove Central - Hwy 99, an IHG Hotel"
485,Teahupoo,PF,82.36,broken clouds,-17.8333,-149.2667,Vanira Lodge
486,Ulaanbaatar,MN,28.53,broken clouds,47.9077,106.8832,The Blue Sky Hotel and Tower
487,Kenitra,MA,52.56,broken clouds,34.261,-6.5802,Bienvenue chez vous
488,Ancud,CL,46.22,light rain,-41.8697,-73.8203,Hotel Arena Gruesa
490,Spencer,US,50.56,clear sky,43.1414,-95.1444,Days Inn by Wyndham Hotel Spencer IA
491,Kamina,CD,62.11,light rain,-8.7386,24.9906,Guest House Florvia
492,High Level,CA,37.51,broken clouds,58.5169,-117.136,Days Inn by Wyndham High Level
493,Cururupu,BR,74.25,moderate rain,-1.8283,-44.8683,POUSADA TRAVÉS'CIA
494,Te Anau,NZ,62.46,few clouds,-45.4167,167.7167,Kingsgate Hotel Te Anau
495,Adeje,ES,61.02,few clouds,28.1227,-16.726,Gran Tacande Wellness & Relax
496,Kensington,AU,75.52,broken clouds,-33.9167,151.2167,Meriton Suites Zetland
497,South Venice,US,64.99,haze,27.0531,-82.4243,"Island Sun Inn & Suites - Venice, Florida Historic Downtown & Beach Getaway"
499,Komsomolskiy,UZ,63.32,overcast clouds,40.4272,71.7189,Ikathouse
500,Jiangyou,CN,70.29,clear sky,31.7667,104.7167,Shangping Shuyuan Inn
501,Finschhafen,PG,83.08,overcast clouds,-6.6024,147.8681,Cossam Guest House
502,Albanel,CA,37.54,overcast clouds,48.8832,-72.4487,Camping municipal d'Albanel
503,Dillingen,DE,35.69,clear sky,49.35,6.7333,Victor's Residenz-Hotel Saarlouis
504,Rapid Valley,US,48.6,overcast clouds,44.0625,-103.1463,Fairfield Inn & Suites by Marriott Rapid City
505,Lanxi,CN,69.37,overcast clouds,29.2195,119.477,Shangri-La Hotel
506,Le Port,RE,77.0,scattered clouds,-20.9373,55.2919,KORBEY D'OR OUEST
507,Saarbrucken,DE,34.09,clear sky,49.2333,7.0,ibis Saarbruecken City
508,Voi,KE,71.51,broken clouds,-3.3945,38.563,Voi Wildlife Lodge
509,Kulhudhuffushi,MV,84.54,overcast clouds,6.6221,73.07,Haajy Guest House 1
510,Lhokseumawe,ID,79.79,overcast clouds,5.1801,97.1507,OYO 3278 Penginapan Alfajri
511,Hlobyne,UA,49.8,overcast clouds,49.3878,33.2596,Versalʹskyy Dvoryk
512,Port-Cartier,CA,32.22,overcast clouds,50.0334,-66.8654,Le Q'Artier
513,Kupang,ID,81.28,overcast clouds,-10.1667,123.5833,Hotel On The Rock by Prasanthi
514,Beidao,CN,67.1,clear sky,34.5686,105.8933,Shell Tianshui Maiji District Erma Road Walking Street Hotel
515,Ukiah,US,68.43,clear sky,39.1502,-123.2078,Hampton Inn Ukiah
516,Mount Pleasant,US,48.2,clear sky,32.7941,-79.8626,Best Western Patriots Point
517,Palestine,PS,48.34,clear sky,31.9216,35.2033,Grand Park Hotel
519,Bosaso,SO,80.28,overcast clouds,11.2842,49.1816,Red Sea Hotel
520,Libourne,FR,43.3,scattered clouds,44.9167,-0.25,Hôtel Mercure Libourne Saint-Émilion
521,Williston,US,46.04,clear sky,48.147,-103.618,Hampton Inn & Suites Williston
522,Goderich,CA,34.92,overcast clouds,43.7501,-81.7165,Harmony Inn
523,Richards Bay,ZA,66.07,light rain,-28.783,32.0377,BON Hotel Waterfront Richards Bay
524,Alice Springs,AU,81.95,clear sky,-23.7,133.8833,Desert Palms Alice Springs
525,Cap Malheureux,MU,75.47,clear sky,-19.9842,57.6142,Pereybere Hotel & Spa
526,Liaocheng,CN,74.97,clear sky,36.4439,115.9647,凯旋宫大酒店
527,Ngunguru,NZ,67.91,scattered clouds,-35.6167,174.5,Pacific Rendezvous Motel Resort
528,Halifax,CA,44.49,overcast clouds,44.6453,-63.5724,Hotel Halifax
529,Salta,AR,66.58,scattered clouds,-24.7859,-65.4117,Hotel Alejandro I
530,Ardalstangen,NO,33.42,light snow,61.2371,7.6983,Klingenberg Hotel AS
531,Sobreira,PT,50.59,overcast clouds,41.5237,-7.8023,Quinta de Santo Aleixo
532,Pangnirtung,CA,14.92,overcast clouds,66.1451,-65.7125,Kilabuk Lodge
534,Waipawa,NZ,62.11,broken clouds,-41.4122,175.5153,Tora Coastal Walk
535,Athabasca,CA,34.21,overcast clouds,54.7169,-113.2854,Athabasca Lodge Motel
536,Koungou,YT,76.71,clear sky,-12.7336,45.2042,Villa Netibor
537,Vung Tau,VN,80.37,overcast clouds,10.346,107.0843,Seaside Resort
538,Grindavik,IS,36.07,overcast clouds,63.8424,-22.4338,Northern Light Inn & Max's Restaurant
539,Bud,US,42.75,clear sky,39.447,-86.1758,Ted McQuinn Trust
540,Bocas Del Toro,PA,74.77,overcast clouds,9.3333,-82.25,Hotel Bocas del Toro
541,Guarapari,BR,79.9,overcast clouds,-20.6667,-40.4975,Hotel Porto do Sol
542,Aswan,EG,79.9,clear sky,24.0934,32.907,Nuba Nile
543,Leshukonskoye,RU,32.79,overcast clouds,64.8989,45.7622,Pryalitsa Hostel
544,Petropavlovskoye,RU,33.12,clear sky,52.0712,84.107,Zarya Hotel
545,Chokwe,MZ,66.6,broken clouds,-24.5333,32.9833,Complexo Sonho Real
546,Gizo,SB,84.45,overcast clouds,-8.103,156.8419,Imagination Island
547,Roma,US,42.96,few clouds,43.2128,-75.4557,Wingate By Wyndham Rome
549,Japaratuba,BR,81.68,few clouds,-10.5933,-36.9403,Pousada Japaratuba
550,Progreso,MX,75.31,overcast clouds,21.2833,-89.6667,Playa Linda Hotel
551,Araceli,PH,81.43,overcast clouds,10.5529,119.9913,JBryan Traveler's Inn
552,Kieta,PG,85.35,scattered clouds,-6.2167,155.6333,Uruna Bay Retreat
553,Nome,US,31.15,snow,64.5011,-165.4064,Dredge 7 Inn
554,Mashhad,IR,66.34,overcast clouds,36.297,59.6062,Khanye Sabz Hotel
555,Palauig,PH,83.88,broken clouds,15.435,119.9045,Alperi Botique Resort
556,Tukrah,LY,59.11,clear sky,32.5341,20.5791,Lagrota restaurant
557,Causapscal,CA,34.2,overcast clouds,48.3542,-67.227,Camping Causapscal chez Moose
558,Cherskiy,RU,-0.56,overcast clouds,68.75,161.3,Gostinitsa
559,Bac Lieu,VN,81.19,broken clouds,9.285,105.7244,Khách sạn Sài Gòn Bạc Liêu
560,Peniche,PT,55.45,overcast clouds,39.3558,-9.3811,Hotel Star inn Peniche
561,Camocim,BR,76.77,overcast clouds,-2.9022,-40.8411,Ilha Praia Hotel
562,Shelburne,CA,32.9,overcast clouds,44.0787,-80.2041,The Retreat at the Farm
563,Alta Floresta,BR,74.59,broken clouds,-9.8756,-56.0861,Floresta Amazonica Hotel
564,Bani,DO,78.85,overcast clouds,18.2833,-70.3333,Hospedaje Henriquez
565,Carlyle,US,48.22,broken clouds,38.6103,-89.3726,Mariner's Village at Carlyle Lake
566,Dryden,CA,44.89,few clouds,49.7833,-92.7503,"Holiday Inn Express Dryden, an IHG Hotel"
567,Port Keats,AU,87.01,scattered clouds,-14.25,129.55,TDC Village (Hundred Man Camp)
568,Riachao Das Neves,BR,72.97,few clouds,-11.7461,-44.91,Casa Costa
569,Chandur Bazar,IN,85.3,overcast clouds,21.2417,77.7456,Shri Tirupati Agro Agency
570,Matara,LK,77.23,broken clouds,5.9485,80.5353,Amaloh Boutique Resort
571,Kalmunai,LK,78.44,overcast clouds,7.4167,81.8167,VS Villa
572,San Cristobal,VE,75.38,broken clouds,7.7669,-72.225,Pirineos
573,Sapele,NG,78.71,overcast clouds,5.8941,5.6767,Movig Hotel & Suites
574,Ormara,PK,79.75,overcast clouds,25.2088,64.6357,Kenara Colony house for Rent
575,Waddan,LY,65.82,clear sky,29.1614,16.139,محل الشريف محمد العايب
576,Sitka,US,44.49,broken clouds,57.0531,-135.33,Westmark Sitka
578,Conceicao Do Araguaia,BR,78.89,overcast clouds,-8.2578,-49.2647,Tarumã Tropical Hotel
579,Nanakuli,US,82.35,clear sky,21.3906,-158.1547,Camp Pālehua
580,Teguise,ES,59.22,clear sky,29.0605,-13.564,B&B La Casona de Nazaret
581,Nuevo Progreso,MX,72.54,clear sky,23.1667,-97.95,Balneario Rio el Paraiso
582,Petauke,ZM,63.36,broken clouds,-14.2426,31.3253,Kwamwanja Wanthu
583,Menongue,AO,61.41,clear sky,-14.6585,17.691,Ritz Lauca
584,Wonthaggi,AU,72.82,overcast clouds,-38.6044,145.5913,Wonthaggi Caravans & Trailers
585,Pandaria,IN,80.04,clear sky,22.2333,81.4167,"SC,ST Hostel,Samrupara"
586,Port-Gentil,GA,78.53,overcast clouds,-0.7193,8.7815,Fengshui Residence
587,Lazaro Cardenas,MX,78.53,overcast clouds,17.9583,-102.2,HOTEL QUINTA ANTIGUA
588,Tarakan,ID,81.9,few clouds,3.3,117.6333,RedDoorz Syariah near Taman Berlabuh Tarakan
590,Mocuba,MZ,68.25,few clouds,-16.8392,36.9856,Phama Lodge
591,Shache,CN,63.41,clear sky,38.4167,77.2406,Delong Hotel
592,Andrews,US,81.66,clear sky,32.3187,-102.5457,Days Inn by Wyndham Andrews Texas
593,Sumenep,ID,81.81,overcast clouds,-7.0167,113.8667,OYO 3271 Homestay Pandian
594,Alyangula,AU,91.27,overcast clouds,-13.8483,136.4192,Groote Eylandt Lodge
595,Nemours,FR,34.16,scattered clouds,48.2751,2.6908,ibis Nemours
596,Quatre Cocos,MU,75.31,scattered clouds,-20.2078,57.7625,Sunrise Attitude Hotel
597,Juruti,BR,75.81,overcast clouds,-2.1522,-56.0922,Pousada Marupiara
598,Havre-Saint-Pierre,CA,32.36,mist,50.2334,-63.5986,Auberge Niapiskau
599,Denpasar,ID,83.86,few clouds,-8.65,115.2167,OYO 3156 Hotel Warta 2
600,Semikarakorsk,RU,48.69,broken clouds,47.5194,40.8112,"The recreation center ""Cossack Quay"""
602,Beaverton,US,50.54,broken clouds,45.4871,-122.8037,Best Western Portland West Beaverton
603,Shimoda,JP,74.1,clear sky,34.6667,138.95,Shimoda Tokyu Hotel
604,Kudymkar,RU,36.18,overcast clouds,59.0173,54.656,Хостел #1 Кудымкар
605,Coracora,PE,50.77,overcast clouds,-15.0333,-73.7833,Hotel Universo
606,Mount Isa,AU,92.97,clear sky,-20.7333,139.5,ibis Styles Mt Isa Verona
607,Zabid,YE,79.75,clear sky,14.1951,43.3152,مغرب التريبه
608,Lata,PT,51.08,overcast clouds,40.1629,-8.3327,Casa Maquia
609,Rocha,UY,65.75,overcast clouds,-34.4833,-54.3333,Hotel Arrarte
610,Bilma,NE,82.67,clear sky,18.6853,12.9164,Expeditions Ténére voyages
613,Sorkjosen,NO,33.8,overcast clouds,69.8,20.9333,Reisafjord Hotel AS
614,Oudtshoorn,ZA,50.36,clear sky,-33.5907,22.2014,Earthbound Guest House
615,Kawhia,NZ,71.51,clear sky,-38.0651,174.8183,Kawhia Beachside Scape Holiday Park
616,Juneau,US,44.6,broken clouds,58.3019,-134.4197,"Baranof Downtown, BW Signature Collection"
617,Praya,CV,70.34,clear sky,14.9215,-23.5087,LT Aparthotel
618,Hervey Bay,AU,80.02,broken clouds,-25.2986,152.8535,Shelly Bay Resort
619,Oroville,US,75.2,clear sky,39.5138,-121.5564,"Holiday Inn Express & Suites Oroville Lake, an IHG Hotel"
621,Orchard Homes,US,41.59,overcast clouds,46.8633,-114.0484,Broadway Inn Missoula
623,Roman,RO,43.43,overcast clouds,46.9167,26.9167,MOTEL CASA ROMASCANA
624,Madang,PG,84.07,broken clouds,-5.2246,145.7966,Comfort Inn Hotel
628,Bandarban,BD,80.31,clear sky,22.1965,92.2262,"Hilltop, Hafazgona, Bandarban"
629,Turayf,SA,53.85,clear sky,31.6725,38.6637,Turaif
630,Santa Rosa,PH,86.09,overcast clouds,14.3122,121.1114,Erlyn’s Sta Rosa City Home
631,Caucaia,BR,80.55,scattered clouds,-3.7361,-38.6531,M.O.S. Logística - Filial Fortaleza
632,Ferkessedougou,CI,80.19,broken clouds,9.6,-5.2,Hotel Chateau
633,Talusan,PH,81.36,overcast clouds,7.4267,122.8103,Niesas Lodging House
634,Bida,NG,80.62,overcast clouds,9.0833,6.0167,Royal Suite
635,Maketu,NZ,76.6,clear sky,-37.7667,176.45,Maketu Beach Holiday Park
636,Saint-Georges,GD,79.09,overcast clouds,12.0564,-61.7485,Radisson Grenada Beach Resort
637,Pando,UY,68.09,clear sky,-34.7167,-55.95,viviendas mvotma
638,Zheleznodorozhnyy,RU,45.14,overcast clouds,55.7503,38.0042,Hotel Dali
639,San Jose,US,74.88,smoke,37.3394,-121.895,The Westin San Jose
641,Sijunjung,ID,81.82,broken clouds,-0.6876,100.9537,Hotel Bukik Gadang
642,San Ramon,US,75.42,clear sky,37.7799,-121.978,San Ramon Marriott
643,Arauca,CO,82.36,overcast clouds,7.0847,-70.7591,Hotel Verano Plaza
645,Orlik,RU,18.48,overcast clouds,52.5178,99.825,Gostevoy Dom Mini Gostinitsa
646,Melilla,ES,53.98,clear sky,35.2937,-2.9383,Hotel Anfora
647,Namatanai,PG,85.53,broken clouds,-3.6667,152.4333,Seagulls Inn Namatani
648,Haines Junction,CA,33.75,broken clouds,60.7522,-137.5108,Parkside Inn
649,Sawakin,SD,78.3,clear sky,19.1059,37.3321,فندق الدويم
650,Champaign,US,44.67,clear sky,40.1334,-88.2001,"Comfort Suites Urbana Champaign, University Area"
651,Linshui,CN,83.97,clear sky,36.4247,114.2047,Fengfeng Dianchang Hotel
652,Kem,RU,31.01,broken clouds,64.9555,34.5793,Kuzova
653,Seguela,CI,72.55,broken clouds,7.9611,-6.6731,Hotel le Carrefour
654,Luzilandia,BR,73.38,moderate rain,-3.4578,-42.3703,Pousada Pontes
655,Portoferraio,IT,51.58,clear sky,42.8115,10.3146,Hotel Villa Ombrosa
656,Nayoro,JP,50.09,overcast clouds,44.3506,142.4578,名寄 大雪荘
657,Mahon,ES,46.96,scattered clouds,39.8885,4.2658,ARTIEM Capri
658,Ust-Ordynskiy,RU,35.29,overcast clouds,52.805,104.7508,Hotel Metelitsa
659,Verkhnevilyuysk,RU,25.74,overcast clouds,63.4453,120.3167,Gostinitsa Mila
660,Lerik,AZ,45.32,overcast clouds,38.7726,48.4128,9 QARDAŞ
661,Pauini,BR,73.94,overcast clouds,-7.7136,-66.9764,Casa do Kiwliks
662,Vaitape,PF,82.31,light rain,-16.5167,-151.75,Conrad Bora Bora Nui
663,Dalvik,IS,22.93,overcast clouds,65.9702,-18.5286,Dalvík HI Hostel
664,Epe,NG,78.06,overcast clouds,6.5841,3.9834,MAGVILLE HOTEL
665,Falmouth,GB,40.1,broken clouds,50.1544,-5.0711,The Falmouth Hotel
666,Yarmouth,US,48.25,clear sky,41.7057,-70.2286,Blue Rock Resort
667,Itoman,JP,77.38,broken clouds,26.1247,127.6694,Southern Beach Hotel & Resort Okinawa
668,Sola,VU,82.49,few clouds,-13.8833,167.55,Leumerus Bungalows
670,Sibu,MY,77.31,scattered clouds,2.3,111.8167,RH HOTEL (4 Star)
671,Kaduqli,SD,85.75,broken clouds,11.0167,29.7167,Nussyba
672,Safranbolu,TR,52.79,overcast clouds,41.2508,32.6942,GuleviSafranbolu Hotel
673,Axim,GH,80.28,overcast clouds,4.8699,-2.2405,Axim Beach Resort And Spa
674,Pasni,PK,79.52,overcast clouds,25.2631,63.471,Kashmiri Hotal
675,Noyabrsk,RU,9.77,overcast clouds,63.1994,75.4507,Hotel Uyutnaya
676,Balabac,PH,79.59,light rain,7.9868,117.0645,Batalla’s Lodging House
677,Smithers,CA,37.72,few clouds,54.7804,-127.1743,"Prestige Hudson Bay Lodge, Premier Collection"
678,Povenets,RU,32.85,snow,62.8487,34.8262,Eko Otel' Bol'shaya Medveditsa
679,Kendari,ID,83.61,overcast clouds,-3.945,122.4989,Hotel Wixel
681,Ilo,PE,66.56,scattered clouds,-17.6394,-71.3375,Torreblanca Hotel
682,Massaguet,TD,87.01,overcast clouds,12.4755,15.4365,Alwatane
684,Port Hedland,AU,89.65,clear sky,-20.3167,118.5667,The Esplanade Hotel
685,Ketchikan,US,42.78,broken clouds,55.3422,-131.6461,Snow's Cove Lodge
